     3.03           OBSERVATION DATA    M: Mixed            RINEX VERSION / TYPE
Geo++ RINEX Logger  Geo++               20210923 063745 UTC PGM / RUN BY / DATE
************************************************************COMMENT
This file was generated by the Geo++ RINEX Logger App       COMMENT
for Android devices (Version 2.1.3). If you encounter       COMMENT
any issues, please send an email to android@geopp.de        COMMENT
************************************************************COMMENT
Geo++                                                       MARKER NAME
GEODETIC                                                    MARKER TYPE
Geo++               Geo++                                   OBSERVER / AGENCY
unknown             HUAWEI              HMA-AL00            REC # / TYPE / VERS
unknown             HMA-AL00                                ANT # / TYPE
 -2267058.5402  5009360.8085  3221413.1261                  APPROX POSITION XYZ
        0.0000        0.0000        0.0000                  ANTENNA: DELTA H/E/N
G    8 C1C L1C D1C S1C C5Q L5Q D5Q S5Q                      SYS / # / OBS TYPES
R    4 C1C L1C D1C S1C                                      SYS / # / OBS TYPES
E   12 C1B L1B D1B S1B C1C L1C D1C S1C C5Q L5Q D5Q S5Q      SYS / # / OBS TYPES
C    4 C2I L2I D2I S2I                                      SYS / # / OBS TYPES
J    8 C1C L1C D1C S1C C5Q L5Q D5Q S5Q                      SYS / # / OBS TYPES
  2021     9    23     6    38    3.0000000     GPS         TIME OF FIRST OBS
 24 R01  1 R02 -4 R03  5 R04  6 R05  1 R06 -4 R07  5 R08  6 GLONASS SLOT / FRQ #
    R09 -2 R10 -7 R11  0 R12 -1 R13 -2 R14 -7 R15  0 R16 -1 GLONASS SLOT / FRQ #
    R17  4 R18 -3 R19  3 R20  2 R21  4 R22 -3 R23  3 R24  2 GLONASS SLOT / FRQ #
G L1C                                                       SYS / PHASE SHIFT
G L5Q -0.25000                                              SYS / PHASE SHIFT
R L1C                                                       SYS / PHASE SHIFT
E L1B                                                       SYS / PHASE SHIFT
E L1C +0.50000                                              SYS / PHASE SHIFT
E L5Q -0.25000                                              SYS / PHASE SHIFT
C L2I                                                       SYS / PHASE SHIFT
J L1C                                                       SYS / PHASE SHIFT
J L5Q -0.25000                                              SYS / PHASE SHIFT
 C1C    0.000 C1P    0.000 C2C    0.000 C2P    0.000        GLONASS COD/PHS/BIS
                                                            END OF HEADER
> 2021  9 23  6 38  3.0000000  0 30
C08  36053884.915                         -22.792          30.000  
C09  37164814.734                         371.618          26.000  
C13  35632496.036                         264.255          30.000  
C16  36412387.229                          63.975          25.000  
C20  22743928.706                         810.226          36.000  
C23  24758776.556                        -906.530          30.000  
C29  23840163.298                        -831.640          34.000  
C30  24568944.973                       -2720.938          11.000  
C39  35968927.630                         -95.931          33.000  
E03  25019730.601                       -1348.196          26.000                                                                    25019729.102                       -1007.367          31.000  
E07  27154996.987                        1730.279          12.000                                                                    27155028.165                        1290.838          15.000  
E08  22180625.273                         334.074          34.000                                                                    22180635.765                         249.582          31.000  
E13  24299594.641                         784.166          34.000                                                                    24299595.240                         586.933          30.000  
E15  24055050.935                       -1963.232          22.000                                                                    24055055.432                       -1467.171          30.000  
E25  27288107.836                        1194.783          27.000                                                                    27288106.037                         890.651          26.000  
G10  24164279.118                        2807.462          10.000    24164337.877                        2082.126          19.000  
G13  23644972.026                       -2932.912          23.000  
G15  21291991.261                       -1939.115          26.000  
G18  20338150.891                         101.847          33.000    20338161.983                          76.891          32.000  
G23  21506967.936                        2045.442          28.000    21506986.523                        1527.282          31.000  
G24                                                                  20167458.059                         831.689          16.000  
G29  25153047.408                       -2674.797          16.000  
J01  39454798.311                         320.013          29.000    39454782.722                         239.245          36.000  
R03  20609485.550                        -368.605          34.000  
R04  21735632.535                        1522.957          37.000  
R12  22684916.659                       -1596.608          19.000  
R13  21147124.051                        1744.210          23.000  
R17  23015222.893                       -4276.880          28.000  
R18  20550280.737                       -2370.687          29.000  
R19  21029131.435                        1202.155          25.000  
> 2021  9 23  6 38  4.0000000  0 30
C08  36053889.112                         -26.435          29.000  
C09  37164743.683                         368.590          26.000  
C13  35632445.371                         262.382          30.000  
C16  36412375.537                          61.367          25.000  
C20  22743775.812                         806.360          36.000  
C23  24758951.335                        -909.137          28.000  
C29  23840323.687                        -833.868          33.000  
C39  35968945.617                         -98.699          33.000  
E03  25019985.724                       -1352.106          26.000                                                                    25019985.425                       -1006.535          30.000  
E07  27154664.517                        1732.292          12.000                                                                    27154699.293                        1289.834          16.000  
E08  22180562.316                         331.584          34.000                                                                    22180572.809                         247.569          30.000  
E13  24299443.845                         781.827          34.000                                                                    24299446.243                         583.770          29.000  
E15  24055423.277                       -1965.782          23.000                                                                    24055428.973                       -1468.064          30.000  
E25  27287883.291                        1190.167          27.000                                                                    27287879.094                         888.142          26.000  
G10  24163741.890                        2799.965          11.000    24163806.645                        2080.923          19.000  
G13  23645530.540                       -2936.080          24.000  
G15  21292360.006                       -1941.970          25.000  
G18  20338132.304                          98.801          33.000    20338143.097                          72.738          33.000  
G23  21506580.004                        2042.582          28.000    21506597.692                        1525.145          30.000  
G24                                                                  20167246.106                         832.320          15.000  
G29  25153553.757                       -2683.031          14.000  
J01  39454738.953                         317.737          29.000    39454721.864                         237.667          36.000  
R02  22809693.878                       -1897.645          20.000  
R03  20609560.498                        -372.055          34.000  
R04  21735348.631                        1519.898          37.000  
R12  22685217.051                       -1603.522          20.000  
R13  21146798.176                        1743.940          23.000  
R17  23016029.334                       -4277.695          27.000  
R18  20550722.931                       -2372.942          28.000  
R19  21028905.991                        1196.652          24.000  
> 2021  9 23  6 38  5.0000000  0 33
C06  36154831.931                         196.583          22.000  
C08  36053893.609                         -29.174          29.000  
C09  37164673.532                         366.007          27.000  
C13  35632396.205                         259.045          31.000  
C16  36412365.944                          58.345          25.000  
C19  25133633.747                        2010.620          19.000  
C20  22743621.718                         805.243          35.000  
C23  24759127.912                        -912.010          29.000  
C29  23840484.376                        -838.194          35.000  
C30  24569986.153                       -2724.576          13.000  
C39  35968963.904                        -100.693          33.000  
E03  25020242.047                       -1353.747          27.000                                                                    25020242.946                       -1010.280          31.000  
E07  27154334.146                        1729.151          11.000                                                                    27154370.720                        1288.352          15.000  
E08  22180499.959                         327.989          33.000                                                                    22180509.553                         246.702          31.000  
E13  24299294.848                         778.497          33.000                                                                    24299297.546                         582.028          29.000  
E15                                                                                                                                  24055803.414                       -1470.795          31.000  
E25  27287658.747                        1189.531          27.000                                                                    27287651.852                         887.437          27.000  
G05  23249851.862                       -2132.737          26.000  
G10  24163209.158                        2791.568          11.000    24163276.012                        2080.015          18.000  
G13  23646089.353                       -2938.516          26.000  
G15  21292728.751                       -1945.582          28.000  
G18  20338114.017                          95.497          34.000    20338124.210                          70.850          33.000  
G23  21506193.572                        2039.088          28.000    21506209.161                        1523.500          30.000  
G24                                                                  20167034.752                         829.185          15.000  
G29  25154062.505                       -2685.856          13.000  
J01  39454678.095                         315.398          29.000    39454661.606                         235.317          36.000  
R02  22810054.228                       -1899.236          21.000  
R03  20609633.048                        -375.598          34.000  
R12  22685516.544                       -1608.490          20.000  
R13  21146469.004                        1740.502          20.000  
R17  23016828.581                       -4279.820          29.000  
R18  20551170.221                       -2377.749          30.000  
R19  21028682.646                        1192.278          24.000  
> 2021  9 23  6 38  6.0000000  0 29
C06  36154795.356                         193.307          26.000  
C08  36053898.406                         -30.029          29.000  
C09  37164604.280                         362.710          29.000  
C13  35632346.740                         256.549          33.000  
C16  36412356.050                          57.115          30.000  
C20  22743468.524                         803.685          35.000  
C23  24759305.090                        -914.675          28.000  
C29  23840645.664                        -841.323          36.000  
C30  24570500.596                       -2725.896          15.000  
C39  35968983.391                        -103.559          33.000  
E03  25020498.070                       -1358.141          27.000                                                                    25020501.367                       -1013.947          32.000  
E07  27154004.074                        1718.911          12.000                                                                    27154042.747                        1282.393          15.000  
E08  22180437.902                         324.902          31.000                                                                    22180447.196                         244.701          31.000  
E13  24299145.851                         774.992          33.000                                                                    24299150.048                         579.515          30.000  
E15  24056169.161                       -1971.947          25.000                                                                    24056178.454                       -1472.918          30.000  
E25  27287431.504                        1183.426          27.000                                                                    27287426.408                         884.433          26.000  
G05  23250256.283                       -2132.980          18.000  
G10                                                                  24162747.178                        2075.881          18.000  
G13  23646650.265                       -2940.794          24.000  
G18  20338095.430                          92.149          35.000    20338105.922                          69.759          35.000  
G23  21505804.741                        2036.522          27.000    21505821.829                        1521.177          29.000  
G24                                                                  20166823.698                         826.914          15.000  
G29  25154568.555                       -2691.179          13.000  
J01  39454617.836                         311.167          28.000    39454601.648                         233.531          35.000  
R03  20609701.401                        -378.173          31.000  
R04  21734791.017                        1516.612          34.000  
R13  21146144.329                        1736.956          23.000  
R17  23017627.228                       -4283.568          29.000  
R18  20551614.813                       -2380.877          33.000  
> 2021  9 23  6 38  7.0000000  0 30
C06  36154760.280                         193.542          26.000  
C08  36053907.099                         -33.266          28.000  
C09  37164535.328                         360.468          28.000  
C13  35632298.473                         252.970          33.000  
C16  36412346.157                          53.980          30.000  
C20  22743315.930                         800.820          35.000  
C23  24759481.068                        -917.730          29.000  
C29  23840807.852                        -844.362          36.000  
C30  24571015.040                       -2720.826          15.000  
C39  35969004.077                        -105.976          34.000  
E03  25020755.591                       -1358.130          27.000                                                                    25020759.788                       -1014.894          32.000  
E07  27153675.502                        1717.135          12.000                                                                    27153716.273                        1280.990          14.000  
E08  22180377.044                         321.770          32.000                                                                    22180385.439                         240.362          32.000  
E13  24298996.855                         772.384          34.000                                                                    24299003.150                         575.609          31.000  
E15  24056542.702                       -1976.455          25.000                                                                    24056553.495                       -1474.714          31.000  
E25  27287203.962                        1180.496          26.000                                                                    27287201.863                         882.534          27.000  
G05  23250662.201                       -2137.005          20.000  
G10                                                                  24162218.944                        2073.620          18.000  
G13  23647209.378                       -2943.516          25.000  
G15  21293465.341                       -1951.593          29.000  
G18  20338076.842                          88.857          35.000    20338088.234                          66.904          33.000  
G23  21505413.512                        2033.570          25.000    21505435.097                        1516.517          31.000  
G24                                                                  20166614.743                         821.173          16.000  
G29  25155069.808                       -2693.817          13.000  
J01  39454558.777                         310.758          29.000    39454542.888                         230.915          35.000  
R02  22810783.024                       -1907.176          21.000  
R13  21145817.555                        1737.942          21.000  
R17  23018428.573                       -4285.150          29.000  
R18  20552065.101                       -2384.257          31.000  
R19  21028232.358                        1184.252          19.000  
> 2021  9 23  6 38  8.0000000  0 27
C06  36154725.205                         192.392          30.000  
C08  36053913.695                         -35.617          26.000  
C09  37164466.375                         357.121          29.000  
C13  35632250.206                         249.503          31.000  
C16  36412337.463                          51.099          32.000  
C20  22743163.635                         797.961          34.000  
C23  24759658.545                        -921.506          27.000  
C29  23840970.040                        -847.448          36.000  
C39  35969023.563                        -109.138          33.000  
E03  25021012.214                       -1360.210          27.000                                                                    25021018.809                       -1016.739          30.000  
E07  27153350.227                        1714.540          12.000                                                                    27153390.099                        1278.149          14.000  
E08  22180317.086                         318.928          33.000                                                                    22180324.581                         239.498          33.000  
E13  24298850.256                         769.556          34.000                                                                    24298856.552                         574.301          30.000  
E15  24056919.241                       -1978.311          28.000                                                                    24056930.034                       -1478.238          32.000  
E25  27286976.419                        1178.040          27.000                                                                    27286977.618                         878.785          25.000  
G10                                                                  24161690.710                        2072.977          17.000  
G18  20338058.255                          84.545          35.000    20338072.046                          63.181          37.000  
G23  21505029.778                        2030.449          26.000    21505048.665                        1516.204          31.000  
G24                                                                  20166405.488                         819.765          16.000  
G29  25155572.859                       -2697.354          15.000  
J01  39454500.618                         307.480          26.000    39454484.429                         229.884          32.000  
J03  37055496.014                        -419.519          21.000  
R04  21734231.305                        1508.017          34.000  
R12  22686416.820                       -1609.627          21.000  
R13  21145494.978                        1731.202          18.000  
R18  20552512.692                       -2387.498          34.000  
R19  21028009.012                        1183.259          23.000  
> 2021  9 23  6 38  9.0000000  0 29
C06  36154690.129                         189.435          29.000  
C08  36053918.791                         -41.378          23.000  
C09  37164397.723                         354.884          30.000  
C13  35632203.139                         247.183          29.000  
C16  36412328.170                          48.091          31.000  
C20  22743011.940                         793.723          34.000  
C23  24759834.523                        -924.533          29.000  
C29  23841134.026                        -850.045          37.000  
C39  35969044.249                        -112.350          32.000  
E03  25021271.834                       -1360.859          18.000                                                                    25021276.331                       -1018.245          27.000  
E07  27153023.453                        1704.769          11.000                                                                    27153063.925                        1279.055          13.000  
E08  22180257.427                         315.617          34.000                                                                    22180264.023                         237.003          32.000  
E13  24298705.756                         764.756          34.000                                                                    24298710.553                         571.932          31.000  
E15  24057295.181                       -1982.262          29.000                                                                    24057307.173                       -1480.565          32.000  
E25  27286751.575                        1176.039          31.000                                                                    27286753.374                         876.481          24.000  
G10                                                                  24161163.075                        2069.336          17.000  
G13  23648335.698                       -2949.885          26.000  
G15  21294204.629                       -1955.554          28.000  
G18  20338041.167                          81.120          35.000    20338056.456                          60.886          38.000  
G23  21504645.444                        2027.826          27.000    21504662.532                        1514.843          32.000  
G24  20166202.828                        1084.517          17.000    20166197.432                         818.624          16.000  
J01  39454441.558                         303.507          27.000    39454426.569                         227.361          32.000  
R02  22811499.527                       -1913.838          21.000  
R03  20609908.557                        -386.309          30.000  
R04  21733949.800                        1504.386          36.000  
R12  22686714.814                       -1614.970          25.000  
R17  23020045.054                       -4292.372          26.000  
R18  20552960.282                       -2391.357          34.000  
R19  21027791.663                        1176.401          24.000  
> 2021  9 23  6 38 10.0000000  0 31
C06  36154654.753                         184.353          28.000  
C08  36053929.284                         -43.878          25.000  
C09  37164329.970                         352.736          30.000  
C13  35632155.172                         244.469          29.000  
C16  36412319.176                          45.059          30.000  
C20  22742859.346                         790.551          32.000  
C23  24760012.300                        -927.166          29.000  
C29  23841296.214                        -852.077          37.000  
C39  35969065.234                        -114.861          32.000  
E03  25021530.555                       -1364.439          19.000                                                                    25021535.052                       -1021.715          27.000  
E07  27152698.178                        1690.878          11.000                                                                    27152737.751                        1276.263          13.000  
E08  22180196.270                         313.364          34.000                                                                    22180204.064                         233.814          31.000  
E13  24298560.057                         762.232          34.000                                                                    24298565.153                         568.672          31.000  
E15  24057671.720                       -1984.106          29.000                                                                    24057684.312                       -1481.929          31.000  
E25  27286527.030                        1172.070          29.000                                                                    27286530.328                         875.242          24.000  
G10  24160593.769                        2768.585          18.000    24160635.140                        2065.378          16.000  
G13  23648895.710                       -2952.195          28.000  
G15  21294576.072                       -1959.569          27.000  
G18                                                                  20338041.767                          58.573          38.000  
G23  21504262.909                        2024.859          25.000    21504276.999                        1512.610          32.000  
G24                                                                  20165988.776                         817.417          16.000  
J01  39454382.200                         300.682          23.000    39454369.308                         226.196          33.000  
J03  37055626.124                        -427.648          21.000  
R02  22811856.880                       -1916.352          21.000  
R03  20609977.210                        -389.772          30.000  
R04  21733668.295                        1502.665          35.000  
R12  22687014.307                       -1618.718          28.000  
R13  21144859.119                        1718.531          18.000  
R17  23020848.798                       -4294.312          24.000  
R18  20553406.373                       -2394.946          34.000  
R19  21027577.911                        1173.717          23.000  
> 2021  9 23  6 38 11.0000000  0 29
C06  36154620.577                         181.074          28.000  
C08  36053937.379                         -45.292          26.000  
C09  37164262.217                         349.382          30.000  
C13  35632106.906                         242.066          29.000  
C16  36412311.981                          42.353          30.000  
C20  22742707.951                         787.675          32.000  
C23  24760189.478                        -930.229          29.000  
C29  23841461.700                        -855.539          37.000  
C39  35969087.419                        -117.332          32.000  
E03  25021788.976                       -1370.486          20.000                                                                    25021794.672                       -1023.263          25.000  
E07  27152374.702                        1682.762           9.000                                                                    27152413.076                        1276.194          14.000  
E08  22180136.611                         311.761          34.000                                                                    22180144.406                         233.035          32.000  
E13  24298414.058                         760.139          35.000                                                                    24298420.653                         567.554          31.000  
E15  24058049.459                       -1987.450          29.000                                                                    24058062.350                       -1483.858          31.000  
E25  27286301.886                        1167.937          28.000                                                                    27286305.184                         873.294          17.000  
G05  23252291.274                       -2151.776          26.000  
G10                                                                  24160107.206                        2067.682          15.000  
G13  23649457.221                       -2954.638          27.000  
G15  21294947.515                       -1961.983          27.000  
G18                                                                  20338027.077                          55.901          38.000  
G23  21503878.874                        2022.292          27.000    21503891.466                        1509.885          32.000  
G24  20165793.911                        1076.163          16.000    20165780.721                         815.117          17.000  
J01                                                                  39454312.648                         223.825          31.000  
R03  20610054.556                        -391.863          31.000  
R04  21733384.691                        1499.595          35.000  
R13  21144545.536                        1716.483          17.000  
R17  23021651.342                       -4297.173          23.000  
R18  20553859.959                       -2398.744          34.000  
R19  21027362.960                        1171.536          23.000  
> 2021  9 23  6 38 12.0000000  0 31
C06  36154585.801                         178.912          29.000  
C08  36053947.871                         -48.152          25.000  
C09  37164195.663                         347.686          31.000  
C13  35632060.438                         239.283          30.000  
C16  36412304.486                          39.515          30.000  
C20  22742556.556                         784.621          32.000  
C23  24760368.154                        -933.226          28.000  
C29  23841626.885                        -859.210          37.000  
C30  24573561.477                       -2734.513          33.000  
C39  35969111.702                        -120.031          32.000  
E03  25022048.896                       -1373.371          20.000                                                                    25022053.992                       -1023.853          25.000  
E07  27152053.924                        1670.471           9.000                                                                    27152088.700                        1273.850          15.000  
E08  22180079.051                         308.153          33.000                                                                    22180085.047                         231.728          32.000  
E13  24298268.958                         757.142          35.000                                                                    24298276.453                         564.874          32.000  
E15  24058430.495                       -1991.473          30.000                                                                    24058441.587                       -1486.624          32.000  
E25  27286080.340                        1166.357          26.000                                                                    27286083.038                         874.344          17.000  
G05  23252705.287                       -2155.013          25.000  
G10  24159563.682                        2765.623          19.000    24159580.470                        2065.810          15.000  
G13  23650015.735                       -2956.968          26.000  
G15  21295322.555                       -1963.587          26.000  
G18                                                                  20338013.286                          52.863          39.000  
G23  21503496.939                        2019.722          26.000    21503506.832                        1507.683          31.000  
G24                                                                  20165572.665                         811.833          18.000  
J01  39454270.377                         295.050          23.000    39454255.687                         221.096          30.000  
R02  22812578.780                       -1922.293          21.000  
R03  20610128.305                        -395.787          33.000  
R04  21733102.586                        1496.330          35.000  
R12  22687618.688                       -1622.872          25.000  
R13  21144229.854                        1716.761          17.000  
R18  20554314.144                       -2401.336          34.000  
R19  21027139.914                        1167.462          24.000  
> 2021  9 23  6 38 13.0000000  0 32
C06  36154551.925                         176.727          28.000  
C08  36053957.764                         -49.839          25.000  
C09  37164129.409                         344.093          31.000  
C13  35632013.670                         236.353          29.000  
C16  36412296.392                          37.455          31.000  
C19  25130521.602                        1980.998          19.000  
C20  22742406.060                         781.597          32.000  
C23  24760547.729                        -935.984          27.000  
C29  23841792.670                        -861.491          37.000  
C30  24574079.519                       -2738.009          35.000  
C39  35969135.386                        -123.154          32.000  
E03  25022309.416                       -1371.285          21.000                                                                    25022314.512                       -1025.967          24.000  
E07  27151737.044                        1663.751           9.000                                                                    27151764.924                        1269.043          16.000  
E08  22180020.591                         304.792          33.000                                                                    22180026.287                         229.424          32.000  
E13  24298124.758                         753.549          34.000                                                                    24298132.853                         563.373          31.000  
E15  24058810.932                       -1993.581          29.000                                                                    24058821.125                       -1486.874          33.000  
E25  27285859.692                        1164.009          25.000                                                                    27285861.791                         872.130          17.000  
G05  23253115.403                       -2156.331          23.000  
G10                                                                  24159054.335                        2064.246          13.000  
G13  23650575.148                       -2959.498          25.000  
G15  21295695.497                       -1968.083          29.000  
G18                                                                  20338000.096                          51.200          38.000  
G23  21503114.404                        2016.370          28.000    21503122.198                        1506.176          32.000  
G24  20165385.294                        1077.027          15.000    20165365.208                         808.040          18.000  
G29  25158075.527                       -2706.981          29.000  
J01  39454211.917                         294.836          21.000    39454199.326                         219.713          29.000  
R03  20610207.450                        -397.858          31.000  
R04  21732826.178                        1494.333          34.000  
R12  22687922.678                       -1629.988          21.000  
R13  21143912.974                        1716.877          16.000  
R18  20554766.531                       -2405.030          35.000  
R19  21026923.464                        1164.410          22.000  
> 2021  9 23  6 38 14.0000000  0 33
C06  36154518.348                         174.172          29.000  
C08  36053967.058                         -54.262          25.000  
C09  37164063.754                         340.632          30.000  
C13  35631968.402                         233.511          30.000  
C16  36412290.396                          34.953          30.000  
C19  25130144.163                        1976.230          19.000  
C20  22742255.564                         779.624          31.000  
C23  24760726.706                        -939.674          26.000  
C29  23841956.957                        -865.030          36.000  
C30  24574601.158                       -2739.896          34.000  
C39  35969159.369                        -124.935          31.000  
E03  25022572.633                       -1378.325          21.000                                                                    25022578.629                       -1030.053          25.000  
E07  27151419.264                        1651.263           9.000                                                                    27151442.048                        1267.171          15.000  
E08  22179962.731                         303.302          33.000                                                                    22179967.828                         226.172          30.000  
E13  24297979.959                         751.276          33.000                                                                    24297989.252                         561.261          31.000  
E15  24059193.767                       -1997.172          30.000                                                                    24059200.362                       -1491.721          33.000  
E25  27285639.645                        1159.716          15.000                                                                    27285640.544                         867.754          17.000  
G05  23253527.918                       -2161.350          24.000  
G10                                                                  24158528.199                        2063.007          12.000  
G13  23651136.959                       -2962.082          26.000  
G15  21296069.338                       -1971.310          28.000  
G18                                                                  20337987.504                          48.506          38.000  
G23  21502729.470                        2013.761          27.000    21502738.464                        1504.395          32.000  
G24  20165182.335                        1079.158          13.000    20165159.251                         805.176          18.000  
G29  25158587.572                       -2709.609          28.000  
J01  39454156.756                         292.352          24.000    39454142.066                         217.948          29.000  
J03  37055949.300                        -440.278          20.000  
R03  20610282.998                        -400.942          30.000  
R04  21732548.270                        1491.521          35.000  
R12  22688224.869                       -1635.666          27.000  
R13  21143592.196                        1719.206          14.000  
R18  20555216.820                       -2407.426          37.000  
R19  21026703.416                        1159.207          25.000  
> 2021  9 23  6 38 15.0000000  0 34
C06  36154484.171                         172.193          28.000  
C08  36053977.851                         -57.318          23.000  
C09  37163998.399                         338.268          31.000  
C13  35631923.732                         230.524          31.000  
C16  36412285.299                          31.077          31.000  
C19  25129767.624                        1972.742          19.000  
C20  22742105.668                         776.942          31.000  
C23  24760907.480                        -944.038          25.000  
C29  23842124.541                        -869.087          36.000  
C30  24575130.891                       -2741.645          34.000  
C39  35969183.952                        -127.880          33.000  
E03  25022837.350                       -1378.613          24.000                                                                    25022841.547                       -1032.614          24.000  
E07  27151104.182                        1638.554           9.000                                                                    27151119.771                        1266.332          15.000  
E08  22179905.471                         299.916          32.000                                                                    22179910.268                         225.255          31.000  
E13  24297836.058                         747.675          33.000                                                                    24297846.851                         558.607          31.000  
E15  24059574.803                       -1999.218          31.000                                                                    24059581.099                       -1493.157          33.000  
E25  27285419.597                        1158.287          17.000                                                                    27285420.197                         865.467          16.000  
G05  23253938.933                       -2164.883          22.000  
G10                                                                  24158002.663                        2060.154          13.000  
G13  23651696.971                       -2964.951          27.000  
G15  21296442.580                       -1973.616          28.000  
G18                                                                  20337975.213                          45.577          39.000  
G23  21502348.734                        2011.038          26.000    21502355.929                        1501.901          33.000  
G24  20164976.078                        1072.468          13.000    20164953.293                         803.184          19.000  
G29  25159101.716                       -2711.621          29.000  
J01  39454101.294                         289.441          25.000    39454086.304                         216.255          29.000  
J03  37056029.944                        -445.635          20.000  
R03  20610358.845                        -403.042          31.000  
R04  21732269.763                        1487.039          35.000  
R12  22688531.556                       -1636.419          26.000  
R13  21143266.022                        1715.123          11.000  
R14  22819832.858                        4057.549          21.000  
R18  20555667.408                       -2411.697          36.000  
R19  21026488.465                        1158.511          23.000  
> 2021  9 23  6 38 16.0000000  0 33
C06  36154452.094                         168.402          29.000  
C09  37163934.244                         336.522          31.000  
C13  35631881.162                         226.515          30.000  
C16  36412279.603                          28.373          31.000  
C19  25129391.984                        1970.273          19.000  
C20  22741954.273                         774.590          29.000  
C23  24761090.354                        -946.258          25.000  
C29  23842292.424                        -873.188          37.000  
C30  24575660.324                       -2744.093          35.000  
C39  35969209.434                        -130.976          32.000  
E03  25023099.669                       -1381.521          19.000                                                                    25023103.866                       -1032.289          24.000  
E07                                                                                                                                  27150797.494                        1264.173          15.000  
E08  22179850.009                         296.905          34.000                                                                    22179853.307                         222.671          29.000  
E13  24297691.258                         743.826          33.000                                                                    24297705.049                         554.277          32.000  
E15  24059956.739                       -2002.613          31.000                                                                    24059961.835                       -1495.177          33.000  
E25  27285199.849                        1156.370          18.000                                                                    27285199.849                         862.396          16.000  
G05  23254350.548                       -2167.597          26.000  
G10  24157482.823                        2757.848          20.000    24157478.026                        2061.883          13.000  
G13  23652256.983                       -2968.406          26.000  
G15  21296819.119                       -1977.270          27.000  
G18                                                                  20337964.120                          43.943          38.000  
G23  21501965.899                        2008.774          26.000    21501973.394                        1498.527          31.000  
G24  20164771.619                        1073.039          12.000    20164748.535                         801.058          19.000  
G29  25159617.359                       -2713.814          30.000  
J01  39454046.132                         286.902          25.000    39454030.843                         214.502          30.000  
J03  37056112.687                        -446.696          21.000  
R02  22814010.889                       -1930.795          19.000  
R03  20610434.993                        -406.626          30.000  
R04  21731990.056                        1484.584          35.000  
R12  22688835.246                       -1643.908          26.000  
R13  21142941.646                        1713.682           9.000  
R14  22818970.056                        3995.921           9.000  
R18  20556119.195                       -2415.693          36.000  
> 2021  9 23  6 38 17.0000000  0 35
C06  36154420.615                         165.216          29.000  
C08  36053998.836                         -61.571          23.000  
C09  37163870.088                         333.871          31.000  
C13  35631839.191                         223.849          29.000  
C16  36412274.207                          25.890          30.000  
C19  25129016.344                        1966.994          19.000  
C20  22741804.077                         771.085          29.000  
C23  24761272.628                        -949.359          25.000  
C29  23842460.608                        -875.791          37.000  
C30  24576189.458                       -2746.892          33.000  
C39  35969235.217                        -133.935          30.000  
E03  25023362.886                       -1391.105          12.000                                                                    25023367.383                       -1037.126          22.000  
E07                                                                                                                                  27150476.117                        1262.744          16.000  
E08  22179794.848                         294.473          34.000                                                                    22179797.845                         219.027          30.000  
E13  24297549.756                         740.615          30.000                                                                    24297563.847                         552.563          32.000  
E15  24060338.674                       -2006.175          32.000                                                                    24060343.171                       -1499.046          32.000  
E25  27284982.799                        1152.664          20.000                                                                    27284979.802                         859.073          16.000  
G05  23254766.360                       -2170.231          22.000  
G10                                                                  24156952.790                        2058.009          12.000  
G13  23652822.692                       -2971.078          23.000  
G15  21297196.258                       -1981.408          30.000  
G18  20337936.540                          54.131          36.000    20337953.328                          40.299          38.000  
G23  21501583.663                        2005.525          25.000    21501591.758                        1496.838          30.000  
G24  20164570.159                        1068.007          11.000    20164544.376                         798.694          20.000  
G29  25160132.103                       -2716.691          30.000  
J01  39453992.469                         284.442          26.000    39453976.880                         211.367          29.000  
J03  37056194.830                        -448.873          21.000  
R02  22814386.229                       -1936.906          20.000  
R03  20610510.840                        -408.658          32.000  
R04  21731710.350                        1481.293          34.000  
R12  22689140.735                       -1644.908          22.000  
R13  21142617.570                        1711.198           9.000  
R14  22818215.178                        4010.653          16.000  
R18  20556566.785                       -2419.327          37.000  
R19  21026068.456                        1148.503          21.000  
> 2021  9 23  6 38 18.0000000  0 32
C06  36154388.238                         160.202          29.000  
C08  36054011.127                         -65.624          23.000  
C09  37163806.532                         329.576          31.000  
C13  35631796.021                         219.571          28.000  
C16  36412268.811                          22.432          31.000  
C20  22741655.979                         767.781          32.000  
C23  24761454.602                        -956.202          25.000  
C29  23842628.192                        -878.492          37.000  
C30  24576719.791                       -2751.025          34.000  
C39  35969260.399                        -137.148          30.000  
E03  25023627.603                       -1393.497          13.000                                                                    25023631.500                       -1037.414          24.000  
E07                                                                                                                                  27150154.739                        1262.013          16.000  
E08  22179739.686                         290.454          33.000                                                                    22179742.684                         216.544          33.000  
E13  24297409.753                         736.688          32.000                                                                    24297423.843                         549.595          31.000  
E15  24060720.610                       -2008.252          29.000                                                                    24060725.706                       -1501.054          33.000  
E25  27284766.349                        1149.170          20.000                                                                    27284761.253                         856.967          17.000  
G05  23255181.273                       -2172.936          23.000  
G10                                                                  24156429.352                        2053.009          13.000  
G15  21297574.296                       -1984.916          28.000  
G18  20337927.246                          50.403          34.000    20337943.735                          37.737          39.000  
G23  21501202.627                        2002.370          29.000    21501210.422                        1494.503          31.000  
G24  20164371.096                        1072.029          11.000    20164341.417                         796.389          20.000  
G29  25160647.746                       -2720.088          31.000  
J01  39453937.607                         281.418          27.000    39453922.918                         209.630          29.000  
J03  37056279.072                        -451.306          22.000  
R02  22814752.575                       -1938.714          20.000  
R03  20610584.289                        -414.724          33.000  
R04  21731432.442                        1478.691          35.000  
R12  22689446.223                       -1648.606          23.000  
R13  21142297.992                        1715.316           9.000  
R18  20557019.771                       -2422.150          36.000  
R19  21025855.903                        1143.780          23.000  
> 2021  9 23  6 38 19.0000000  0 31
C06  36154356.760                         156.215          28.000  
C08  36054022.819                         -70.888          25.000  
C09  37163743.576                         326.036          31.000  
C13  35631754.050                         218.192          29.000  
C16  36412264.914                          19.214          30.000  
C20  22741508.781                         764.338          33.000  
C23  24761640.173                        -962.055          18.000  
C29  23842796.975                        -882.482          37.000  
C30  24577250.424                       -2754.796          34.000  
C39  35969286.181                        -140.057          32.000  
E03  25023891.720                       -1393.480          12.000                                                                    25023895.917                       -1038.730          24.000  
E07                                                                                                                                  27149834.261                        1259.533          16.000  
E08  22179684.824                         287.232          35.000                                                                    22179687.522                         213.994          32.000  
E13  24297269.750                         733.463          32.000                                                                    24297284.140                         546.976          31.000  
E15  24061106.443                       -2012.718          29.000                                                                    24061108.241                       -1502.185          33.000  
E25  27284548.700                        1144.419          26.000                                                                    27284543.304                         854.324          17.000  
G10  24155930.198                        2748.055          18.000    24155906.814                        2050.361          14.000  
G13  23653947.813                       -2976.871          25.000  
G15  21297953.234                       -1988.849          27.000  
G18  20337918.252                          46.584          34.000    20337934.141                          34.487          39.000  
G23  21500822.490                        1999.683          29.000    21500829.685                        1492.334          33.000  
G24  20164169.336                        1067.562          11.000    20164138.457                         792.900          20.000  
G29  25161164.888                       -2723.075          29.000  
J01  39453885.743                         277.920          23.000    39453869.554                         207.598          27.000  
J03  37056362.714                        -452.800          21.000  
R03  20610661.636                        -416.668          30.000  
R04  21731157.233                        1475.852          35.000  
R12  22689754.110                       -1649.974          23.000  
R13  21141980.212                        1716.020           9.000  
R18  20557482.351                       -2426.370          37.000  
R19  21025644.849                        1139.471          22.000  
> 2021  9 23  6 38 20.0000000  0 30
C06  36154325.581                         154.786          29.000  
C08  36054037.809                         -72.095          24.000  
C09  37163681.519                         322.630          32.000  
C13  35631712.679                         215.442          30.000  
C16  36412261.616                          17.087          31.000  
C20  22741362.482                         760.784          34.000  
C23  24761824.845                        -963.626          20.000  
C29  23842967.557                        -886.333          38.000  
C30  24577780.157                       -2758.705          33.000  
C39  35969314.062                        -143.047          31.000  
E03  25024154.039                       -1394.603          14.000                                                                    25024160.034                       -1039.935          26.000  
E07                                                                                                                                  27149514.982                        1255.083          17.000  
E08  22179631.461                         283.739          34.000                                                                    22179632.960                         212.803          31.000  
E13  24297131.846                         730.861          32.000                                                                    24297145.336                         545.584          33.000  
E15  24061489.877                       -2015.202          28.000                                                                    24061491.376                       -1505.410          32.000  
E25  27284331.950                        1140.815          29.000                                                                    27284325.954                         852.137          17.000  
G05  23256006.302                       -2178.693          22.000  
G10                                                                  24155384.575                        2046.421          14.000  
G13  23654513.221                       -2980.396          22.000  
G15  21298331.572                       -1991.114          29.000  
